[{"@id":"urn:ucode:_00001C00000000000001000003102B34","@type":"odpt:Station","dc:date":"2017-12-08T13:40:53+09:00","geo:lat":35.6593,"@context":"http://vocab.odpt.org/context_odpt.jsonld","dc:title":"渋谷","geo:long":139.701018,"owl:sameAs":"odpt.Station:Tokyu.Toyoko.Shibuya","odpt:railway":"odpt.Railway:Tokyu.Toyoko","odpt:operator":"odpt.Operator:Tokyu","odpt:stationCode":"TY1"},{"@id":"urn:ucode:_00001C00000000000001000003102B35","@type":"odpt:Station","dc:date":"2017-12-08T13:40:53+09:00","geo:lat":35.648043,"@context":"http://vocab.odpt.org/context_odpt.jsonld","dc:title":"代官山","geo:long":139.703084,"owl:sameAs":"odpt.Station:Tokyu.Toyoko.Daikanama","odpt:railway":"odpt.Railway:Tokyu.Toyoko","odpt:operator":"odpt.Operator:Tokyu","odpt:stationCode":"TY2"},{"@id":"urn:ucode:_00001C00000000000001000003102B36","@type":"odpt:Station","dc:date":"2017-12-08T13:40:53+09:00","geo:lat":35.64431,"@context":"http://vocab.odpt.org/context_odpt.jsonld","dc:title":"中目黒","geo:long":139.699116,"owl:sameAs":"odpt.Station:Tokyu.Toyoko.NakaMeguro","odpt:railway":"odpt.Railway:Tokyu.Toyoko","odpt:operator":"odpt.Operator:Tokyu","odpt:stationCode":"TY3"},{"@id":"urn:ucode:_00001C00000000000001000003102B37","@type":"odpt:Station","dc:date":"2017-12-08T13:40:53+09:00","geo:lat":35.637482,"@context":"http://vocab.odpt.org/context_odpt.jsonld","dc:title":"祐天寺","geo:long":139.690894,"owl:sameAs":"odpt.Station:Tokyu.Toyoko.Yutenji","odpt:railway":"odpt.Railway:Tokyu.Toyoko","odpt:operator":"odpt.Operator:Tokyu","odpt:stationCode":"TY4"},{"@id":"urn:ucode:_00001C00000000000001000003102B38","@type":"odpt:Station","dc:date":"2017-12-08T13:40:53+09:00","geo:lat":35.628969,"@context":"http://vocab.odpt.org/context_odpt.jsonld","dc:title":"学芸大学","geo:long":139.685394,"owl:sameAs":"odpt.Station:Tokyu.Toyoko.GakugeiDaigaku","odpt:railway":"odpt.Railway:Tokyu.Toyoko","odpt:operator":"odpt.Operator:Tokyu","odpt:stationCode":"TY5"},{"@id":"urn:ucode:_00001C00000000000001000003102B39","@type":"odpt:Station","dc:date":"2017-12-08T13:40:53+09:00","geo:lat":35.617187,"@context":"http://vocab.odpt.org/context_odpt.jsonld","dc:title":"都立大学","geo:long":139.675951,"owl:sameAs":"odpt.Station:Tokyu.Toyoko.ToritsuDaigaku","odpt:railway":"odpt.Railway:Tokyu.Toyoko","odpt:operator":"odpt.Operator:Tokyu","odpt:stationCode":"TY6"},{"@id":"urn:ucode:_00001C00000000000001000003102B3A","@type":"odpt:Station","dc:date":"2017-12-08T13:40:53+09:00","geo:lat":35.60735,"@context":"http://vocab.odpt.org/context_odpt.jsonld","dc:title":"自由が丘","geo:long":139.668532,"owl:sameAs":"odpt.Station:Tokyu.Toyoko.Jiyugaoka","odpt:railway":"odpt.Railway:Tokyu.Toyoko","odpt:operator":"odpt.Operator:Tokyu","odpt:stationCode":"TY7"},{"@id":"urn:ucode:_00001C00000000000001000003102B3B","@type":"odpt:Station","dc:date":"2017-12-08T13:40:53+09:00","geo:lat":35.596893,"@context":"http://vocab.odpt.org/context_odpt.jsonld","dc:title":"田園調布","geo:long":139.667289,"owl:sameAs":"odpt.Station:Tokyu.Toyoko.DenEnChofu","odpt:railway":"odpt.Railway:Tokyu.Toyoko","odpt:operator":"odpt.Operator:Tokyu","odpt:stationCode":"TY8"},{"@id":"urn:ucode:_00001C00000000000001000003102B3C","@type":"odpt:Station","dc:date":"2017-12-08T13:40:53+09:00","geo:lat":35.589219,"@context":"http://vocab.odpt.org/context_odpt.jsonld","dc:title":"多摩川","geo:long":139.668873,"owl:sameAs":"odpt.Station:Tokyu.Toyoko.Tamagawa","odpt:railway":"odpt.Railway:Tokyu.Toyoko","odpt:operator":"odpt.Operator:Tokyu","odpt:stationCode":"TY9"},{"@id":"urn:ucode:_00001C00000000000001000003102B3D","@type":"odpt:Station","dc:date":"2017-12-08T13:40:53+09:00","geo:lat":35.580296,"@context":"http://vocab.odpt.org/context_odpt.jsonld","dc:title":"新丸子","geo:long":139.661941,"owl:sameAs":"odpt.Station:Tokyu.Toyoko.ShinMaruko","odpt:railway":"odpt.Railway:Tokyu.Toyoko","odpt:operator":"odpt.Operator:Tokyu","odpt:stationCode":"TY10"},{"@id":"urn:ucode:_00001C00000000000001000003102B3E","@type":"odpt:Station","dc:date":"2017-12-08T13:40:53+09:00","geo:lat":35.575677,"@context":"http://vocab.odpt.org/context_odpt.jsonld","dc:title":"武蔵小杉","geo:long":139.659578,"owl:sameAs":"odpt.Station:Tokyu.Toyoko.MusashiKosugi","odpt:railway":"odpt.Railway:Tokyu.Toyoko","odpt:operator":"odpt.Operator:Tokyu","odpt:stationCode":"TY11"},{"@id":"urn:ucode:_00001C00000000000001000003102B3F","@type":"odpt:Station","dc:date":"2017-12-08T13:40:53+09:00","geo:lat":35.564609,"@context":"http://vocab.odpt.org/context_odpt.jsonld","dc:title":"元住吉","geo:long":139.653993,"owl:sameAs":"odpt.Station:Tokyu.Toyoko.Motosumiyoshi","odpt:railway":"odpt.Railway:Tokyu.Toyoko","odpt:operator":"odpt.Operator:Tokyu","odpt:stationCode":"TY12"},{"@id":"urn:ucode:_00001C00000000000001000003102B40","@type":"odpt:Station","dc:date":"2017-12-08T13:40:53+09:00","geo:lat":35.554181,"@context":"http://vocab.odpt.org/context_odpt.jsonld","dc:title":"日吉","geo:long":139.647144,"owl:sameAs":"odpt.Station:Tokyu.Toyoko.Hiyoshi","odpt:railway":"odpt.Railway:Tokyu.Toyoko","odpt:operator":"odpt.Operator:Tokyu","odpt:stationCode":"TY13"},{"@id":"urn:ucode:_00001C00000000000001000003102B41","@type":"odpt:Station","dc:date":"2017-12-08T13:40:53+09:00","geo:lat":35.536462,"@context":"http://vocab.odpt.org/context_odpt.jsonld","dc:title":"綱島","geo:long":139.634543,"owl:sameAs":"odpt.Station:Tokyu.Toyoko.Tsunashima","odpt:railway":"odpt.Railway:Tokyu.Toyoko","odpt:operator":"odpt.Operator:Tokyu","odpt:stationCode":"TY14"},{"@id":"urn:ucode:_00001C00000000000001000003102B42","@type":"odpt:Station","dc:date":"2017-12-08T13:40:53+09:00","geo:lat":35.521883,"@context":"http://vocab.odpt.org/context_odpt.jsonld","dc:title":"大倉山","geo:long":139.629947,"owl:sameAs":"odpt.Station:Tokyu.Toyoko.Okurayama","odpt:railway":"odpt.Railway:Tokyu.Toyoko","odpt:operator":"odpt.Operator:Tokyu","odpt:stationCode":"TY15"},{"@id":"urn:ucode:_00001C00000000000001000003102B43","@type":"odpt:Station","dc:date":"2017-12-08T13:40:53+09:00","geo:lat":35.509906,"@context":"http://vocab.odpt.org/context_odpt.jsonld","dc:title":"菊名","geo:long":139.631133,"owl:sameAs":"odpt.Station:Tokyu.Toyoko.Kikuna","odpt:railway":"odpt.Railway:Tokyu.Toyoko","odpt:operator":"odpt.Operator:Tokyu","odpt:stationCode":"TY16"},{"@id":"urn:ucode:_00001C00000000000001000003102B44","@type":"odpt:Station","dc:date":"2017-12-08T13:40:53+09:00","geo:lat":35.498474,"@context":"http://vocab.odpt.org/context_odpt.jsonld","dc:title":"妙蓮寺","geo:long":139.63315,"owl:sameAs":"odpt.Station:Tokyu.Toyoko.Myorenji","odpt:railway":"odpt.Railway:Tokyu.Toyoko","odpt:operator":"odpt.Operator:Tokyu","odpt:stationCode":"TY17"},{"@id":"urn:ucode:_00001C00000000000001000003102B45","@type":"odpt:Station","dc:date":"2017-12-08T13:40:53+09:00","geo:lat":35.489052,"@context":"http://vocab.odpt.org/context_odpt.jsonld","dc:title":"白楽","geo:long":139.628419,"owl:sameAs":"odpt.Station:Tokyu.Toyoko.Hakuraku","odpt:railway":"odpt.Railway:Tokyu.Toyoko","odpt:operator":"odpt.Operator:Tokyu","odpt:stationCode":"TY18"},{"@id":"urn:ucode:_00001C00000000000001000003102B46","@type":"odpt:Station","dc:date":"2017-12-08T13:40:53+09:00","geo:lat":35.48332,"@context":"http://vocab.odpt.org/context_odpt.jsonld","dc:title":"東白楽","geo:long":139.629486,"owl:sameAs":"odpt.Station:Tokyu.Toyoko.HigashiHakuraku","odpt:railway":"odpt.Railway:Tokyu.Toyoko","odpt:operator":"odpt.Operator:Tokyu","odpt:stationCode":"TY19"},{"@id":"urn:ucode:_00001C00000000000001000003102B47","@type":"odpt:Station","dc:date":"2017-12-08T13:40:53+09:00","geo:lat":35.474718,"@context":"http://vocab.odpt.org/context_odpt.jsonld","dc:title":"反町","geo:long":139.625248,"owl:sameAs":"odpt.Station:Tokyu.Toyoko.Tammachi","odpt:railway":"odpt.Railway:Tokyu.Toyoko","odpt:operator":"odpt.Operator:Tokyu","odpt:stationCode":"TY20"},{"@id":"urn:ucode:_00001C00000000000001000003102B48","@type":"odpt:Station","dc:date":"2017-12-08T13:40:53+09:00","geo:lat":35.466419,"@context":"http://vocab.odpt.org/context_odpt.jsonld","dc:title":"横浜","geo:long":139.622203,"owl:sameAs":"odpt.Station:Tokyu.Toyoko.Yokohama","odpt:railway":"odpt.Railway:Tokyu.Toyoko","odpt:operator":"odpt.Operator:Tokyu","odpt:stationCode":"TY21"}]