[{"@id":"urn:ucode:_00001C00000000000001000003102AC3","@type":"odpt:Station","dc:date":"2017-12-08T13:40:52+09:00","geo:lat":35.728572,"@context":"http://vocab.odpt.org/context_odpt.jsonld","dc:title":"池袋","geo:long":139.711744,"owl:sameAs":"odpt.Station:Seibu.Ikebukuro.Ikebukuro","odpt:railway":"odpt.Railway:Seibu.Ikebukuro","odpt:operator":"odpt.Operator:Seibu","odpt:stationCode":"SI01"},{"@id":"urn:ucode:_00001C00000000000001000003102AC4","@type":"odpt:Station","dc:date":"2017-12-08T13:40:52+09:00","geo:lat":35.726625,"@context":"http://vocab.odpt.org/context_odpt.jsonld","dc:title":"椎名町","geo:long":139.694721,"owl:sameAs":"odpt.Station:Seibu.Ikebukuro.Shiinamachi","odpt:railway":"odpt.Railway:Seibu.Ikebukuro","odpt:operator":"odpt.Operator:Seibu","odpt:stationCode":"SI02"},{"@id":"urn:ucode:_00001C00000000000001000003102AC5","@type":"odpt:Station","dc:date":"2017-12-08T13:40:52+09:00","geo:lat":35.730296,"@context":"http://vocab.odpt.org/context_odpt.jsonld","dc:title":"東長崎","geo:long":139.682936,"owl:sameAs":"odpt.Station:Seibu.Ikebukuro.HigashiNagasaki","odpt:railway":"odpt.Railway:Seibu.Ikebukuro","odpt:operator":"odpt.Operator:Seibu","odpt:stationCode":"SI03"},{"@id":"urn:ucode:_00001C00000000000001000003102AC6","@type":"odpt:Station","dc:date":"2017-12-08T13:40:52+09:00","geo:lat":35.737499,"@context":"http://vocab.odpt.org/context_odpt.jsonld","dc:title":"江古田","geo:long":139.672898,"owl:sameAs":"odpt.Station:Seibu.Ikebukuro.Ekoda","odpt:railway":"odpt.Railway:Seibu.Ikebukuro","odpt:operator":"odpt.Operator:Seibu","odpt:stationCode":"SI04"},{"@id":"urn:ucode:_00001C00000000000001000003102AC7","@type":"odpt:Station","dc:date":"2017-12-08T13:40:52+09:00","geo:lat":35.738763,"@context":"http://vocab.odpt.org/context_odpt.jsonld","dc:title":"桜台","geo:long":139.661835,"owl:sameAs":"odpt.Station:Seibu.Ikebukuro.Sakuradai","odpt:railway":"odpt.Railway:Seibu.Ikebukuro","odpt:operator":"odpt.Operator:Seibu","odpt:stationCode":"SI05"},{"@id":"urn:ucode:_00001C00000000000001000003102AC8","@type":"odpt:Station","dc:date":"2017-12-08T13:40:52+09:00","geo:lat":35.737851,"@context":"http://vocab.odpt.org/context_odpt.jsonld","dc:title":"練馬","geo:long":139.653394,"owl:sameAs":"odpt.Station:Seibu.Ikebukuro.Nerima","odpt:railway":"odpt.Railway:Seibu.Ikebukuro","odpt:operator":"odpt.Operator:Seibu","odpt:stationCode":"SI06"},{"@id":"urn:ucode:_00001C00000000000001000003102AC9","@type":"odpt:Station","dc:date":"2017-12-08T13:40:52+09:00","geo:lat":35.736776,"@context":"http://vocab.odpt.org/context_odpt.jsonld","dc:title":"中村橋","geo:long":139.637545,"owl:sameAs":"odpt.Station:Seibu.Ikebukuro.Nakamurabashi","odpt:railway":"odpt.Railway:Seibu.Ikebukuro","odpt:operator":"odpt.Operator:Seibu","odpt:stationCode":"SI07"},{"@id":"urn:ucode:_00001C00000000000001000003102ACA","@type":"odpt:Station","dc:date":"2017-12-08T13:40:52+09:00","geo:lat":35.735907,"@context":"http://vocab.odpt.org/context_odpt.jsonld","dc:title":"富士見台","geo:long":139.629867,"owl:sameAs":"odpt.Station:Seibu.Ikebukuro.Fujimidai","odpt:railway":"odpt.Railway:Seibu.Ikebukuro","odpt:operator":"odpt.Operator:Seibu","odpt:stationCode":"SI08"},{"@id":"urn:ucode:_00001C00000000000001000003102ACB","@type":"odpt:Station","dc:date":"2017-12-08T13:40:52+09:00","geo:lat":35.740633,"@context":"http://vocab.odpt.org/context_odpt.jsonld","dc:title":"練馬高野台","geo:long":139.616878,"owl:sameAs":"odpt.Station:Seibu.Ikebukuro.NerimaTakanodai","odpt:railway":"odpt.Railway:Seibu.Ikebukuro","odpt:operator":"odpt.Operator:Seibu","odpt:stationCode":"SI09"},{"@id":"urn:ucode:_00001C00000000000001000003102ACC","@type":"odpt:Station","dc:date":"2017-12-08T13:40:52+09:00","geo:lat":35.743713,"@context":"http://vocab.odpt.org/context_odpt.jsonld","dc:title":"石神井公園","geo:long":139.606669,"owl:sameAs":"odpt.Station:Seibu.Ikebukuro.ShakujiiKoen","odpt:railway":"odpt.Railway:Seibu.Ikebukuro","odpt:operator":"odpt.Operator:Seibu","odpt:stationCode":"SI10"},{"@id":"urn:ucode:_00001C00000000000001000003102ACD","@type":"odpt:Station","dc:date":"2017-12-08T13:40:52+09:00","geo:lat":35.749731,"@context":"http://vocab.odpt.org/context_odpt.jsonld","dc:title":"大泉学園","geo:long":139.58634,"owl:sameAs":"odpt.Station:Seibu.Ikebukuro.UizumiGakuen","odpt:railway":"odpt.Railway:Seibu.Ikebukuro","odpt:operator":"odpt.Operator:Seibu","odpt:stationCode":"SI11"},{"@id":"urn:ucode:_00001C00000000000001000003102ACE","@type":"odpt:Station","dc:date":"2017-12-08T13:40:52+09:00","geo:lat":35.748125,"@context":"http://vocab.odpt.org/context_odpt.jsonld","dc:title":"保谷","geo:long":139.567433,"owl:sameAs":"odpt.Station:Seibu.Ikebukuro.Hoya","odpt:railway":"odpt.Railway:Seibu.Ikebukuro","odpt:operator":"odpt.Operator:Seibu","odpt:stationCode":"SI12"},{"@id":"urn:ucode:_00001C00000000000001000003102ACF","@type":"odpt:Station","dc:date":"2017-12-08T13:40:52+09:00","geo:lat":35.751671,"@context":"http://vocab.odpt.org/context_odpt.jsonld","dc:title":"ひばりヶ丘","geo:long":139.545341,"owl:sameAs":"odpt.Station:Seibu.Ikebukuro.Hibarigaoka","odpt:railway":"odpt.Railway:Seibu.Ikebukuro","odpt:operator":"odpt.Operator:Seibu","odpt:stationCode":"SI13"},{"@id":"urn:ucode:_00001C00000000000001000003102AD0","@type":"odpt:Station","dc:date":"2017-12-08T13:40:52+09:00","geo:lat":35.760773,"@context":"http://vocab.odpt.org/context_odpt.jsonld","dc:title":"東久留米","geo:long":139.533814,"owl:sameAs":"odpt.Station:Seibu.Ikebukuro.HigashiKurume","odpt:railway":"odpt.Railway:Seibu.Ikebukuro","odpt:operator":"odpt.Operator:Seibu","odpt:stationCode":"SI14"},{"@id":"urn:ucode:_00001C00000000000001000003102AD1","@type":"odpt:Station","dc:date":"2017-12-08T13:40:52+09:00","geo:lat":35.772154,"@context":"http://vocab.odpt.org/context_odpt.jsonld","dc:title":"清瀬","geo:long":139.520521,"owl:sameAs":"odpt.Station:Seibu.Ikebukuro.Kiyose","odpt:railway":"odpt.Railway:Seibu.Ikebukuro","odpt:operator":"odpt.Operator:Seibu","odpt:stationCode":"SI15"},{"@id":"urn:ucode:_00001C00000000000001000003102AD2","@type":"odpt:Station","dc:date":"2017-12-08T13:40:52+09:00","geo:lat":35.778444,"@context":"http://vocab.odpt.org/context_odpt.jsonld","dc:title":"秋津","geo:long":139.496278,"owl:sameAs":"odpt.Station:Seibu.Ikebukuro.Akitsu","odpt:railway":"odpt.Railway:Seibu.Ikebukuro","odpt:operator":"odpt.Operator:Seibu","odpt:stationCode":"SI16"},{"@id":"urn:ucode:_00001C00000000000001000003102AD3","@type":"odpt:Station","dc:date":"2017-12-08T13:40:52+09:00","geo:lat":35.786307,"@context":"http://vocab.odpt.org/context_odpt.jsonld","dc:title":"所沢","geo:long":139.47388,"owl:sameAs":"odpt.Station:Seibu.Ikebukuro.Tokorozawa","odpt:railway":"odpt.Railway:Seibu.Ikebukuro","odpt:operator":"odpt.Operator:Seibu","odpt:stationCode":"SI17"},{"@id":"urn:ucode:_00001C00000000000001000003102AD4","@type":"odpt:Station","dc:date":"2017-12-08T13:40:52+09:00","geo:lat":35.789215,"@context":"http://vocab.odpt.org/context_odpt.jsonld","dc:title":"西所沢","geo:long":139.456123,"owl:sameAs":"odpt.Station:Seibu.Ikebukuro.NishiTokorozawa","odpt:railway":"odpt.Railway:Seibu.Ikebukuro","odpt:operator":"odpt.Operator:Seibu","odpt:stationCode":"SI18"},{"@id":"urn:ucode:_00001C00000000000001000003102AD5","@type":"odpt:Station","dc:date":"2017-12-08T13:40:52+09:00","geo:lat":35.800627,"@context":"http://vocab.odpt.org/context_odpt.jsonld","dc:title":"小手指","geo:long":139.438026,"owl:sameAs":"odpt.Station:Seibu.Ikebukuro.Kotesashi","odpt:railway":"odpt.Railway:Seibu.Ikebukuro","odpt:operator":"odpt.Operator:Seibu","odpt:stationCode":"SI19"},{"@id":"urn:ucode:_00001C00000000000001000003102AD6","@type":"odpt:Station","dc:date":"2017-12-08T13:40:52+09:00","geo:lat":35.810197,"@context":"http://vocab.odpt.org/context_odpt.jsonld","dc:title":"狭山ヶ丘","geo:long":139.416506,"owl:sameAs":"odpt.Station:Seibu.Ikebukuro.Sayamagaoka","odpt:railway":"odpt.Railway:Seibu.Ikebukuro","odpt:operator":"odpt.Operator:Seibu","odpt:stationCode":"SI20"},{"@id":"urn:ucode:_00001C00000000000001000003102AD7","@type":"odpt:Station","dc:date":"2017-12-08T13:40:52+09:00","geo:lat":35.821082,"@context":"http://vocab.odpt.org/context_odpt.jsonld","dc:title":"武蔵藤沢","geo:long":139.412392,"owl:sameAs":"odpt.Station:Seibu.Ikebukuro.MusashiFujisawa","odpt:railway":"odpt.Railway:Seibu.Ikebukuro","odpt:operator":"odpt.Operator:Seibu","odpt:stationCode":"SI21"},{"@id":"urn:ucode:_00001C00000000000001000003102AD8","@type":"odpt:Station","dc:date":"2017-12-08T13:40:52+09:00","geo:lat":35.8451,"@context":"http://vocab.odpt.org/context_odpt.jsonld","dc:title":"稲荷山公園","geo:long":139.398273,"owl:sameAs":"odpt.Station:Seibu.Ikebukuro.InariyamaKoen","odpt:railway":"odpt.Railway:Seibu.Ikebukuro","odpt:operator":"odpt.Operator:Seibu","odpt:stationCode":"SI22"},{"@id":"urn:ucode:_00001C00000000000001000003102AD9","@type":"odpt:Station","dc:date":"2017-12-08T13:40:52+09:00","geo:lat":35.841804,"@context":"http://vocab.odpt.org/context_odpt.jsonld","dc:title":"入間市","geo:long":139.389599,"owl:sameAs":"odpt.Station:Seibu.Ikebukuro.Irumashi","odpt:railway":"odpt.Railway:Seibu.Ikebukuro","odpt:operator":"odpt.Operator:Seibu","odpt:stationCode":"SI23"},{"@id":"urn:ucode:_00001C00000000000001000003102ADA","@type":"odpt:Station","dc:date":"2017-12-08T13:40:52+09:00","geo:lat":35.837864,"@context":"http://vocab.odpt.org/context_odpt.jsonld","dc:title":"仏子","geo:long":139.359824,"owl:sameAs":"odpt.Station:Seibu.Ikebukuro.Bushi","odpt:railway":"odpt.Railway:Seibu.Ikebukuro","odpt:operator":"odpt.Operator:Seibu","odpt:stationCode":"SI24"},{"@id":"urn:ucode:_00001C00000000000001000003102ADB","@type":"odpt:Station","dc:date":"2017-12-08T13:40:52+09:00","geo:lat":35.840525,"@context":"http://vocab.odpt.org/context_odpt.jsonld","dc:title":"元加治","geo:long":139.345757,"owl:sameAs":"odpt.Station:Seibu.Ikebukuro.Motokaji","odpt:railway":"odpt.Railway:Seibu.Ikebukuro","odpt:operator":"odpt.Operator:Seibu","odpt:stationCode":"SI25"},{"@id":"urn:ucode:_00001C00000000000001000003102ADC","@type":"odpt:Station","dc:date":"2017-12-08T13:40:52+09:00","geo:lat":35.850986,"@context":"http://vocab.odpt.org/context_odpt.jsonld","dc:title":"飯能","geo:long":139.319284,"owl:sameAs":"odpt.Station:Seibu.Ikebukuro.Hanno","odpt:railway":"odpt.Railway:Seibu.Ikebukuro","odpt:operator":"odpt.Operator:Seibu","odpt:stationCode":"SI26"},{"@id":"urn:ucode:_00001C00000000000001000003102ADD","@type":"odpt:Station","dc:date":"2017-12-08T13:40:52+09:00","geo:lat":35.852673,"@context":"http://vocab.odpt.org/context_odpt.jsonld","dc:title":"東飯能","geo:long":139.325965,"owl:sameAs":"odpt.Station:Seibu.Ikebukuro.HigashiHanno","odpt:railway":"odpt.Railway:Seibu.Ikebukuro","odpt:operator":"odpt.Operator:Seibu","odpt:stationCode":"SI27"},{"@id":"urn:ucode:_00001C00000000000001000003102ADE","@type":"odpt:Station","dc:date":"2017-12-08T13:40:52+09:00","geo:lat":35.881612,"@context":"http://vocab.odpt.org/context_odpt.jsonld","dc:title":"高麗","geo:long":139.304255,"owl:sameAs":"odpt.Station:Seibu.Ikebukuro.Koma","odpt:railway":"odpt.Railway:Seibu.Ikebukuro","odpt:operator":"odpt.Operator:Seibu","odpt:stationCode":"SI28"},{"@id":"urn:ucode:_00001C00000000000001000003102ADF","@type":"odpt:Station","dc:date":"2017-12-08T13:40:52+09:00","geo:lat":35.871844,"@context":"http://vocab.odpt.org/context_odpt.jsonld","dc:title":"武蔵横手","geo:long":139.285656,"owl:sameAs":"odpt.Station:Seibu.Ikebukuro.MusashiYokote","odpt:railway":"odpt.Railway:Seibu.Ikebukuro","odpt:operator":"odpt.Operator:Seibu","odpt:stationCode":"SI29"},{"@id":"urn:ucode:_00001C00000000000001000003102AE0","@type":"odpt:Station","dc:date":"2017-12-08T13:40:52+09:00","geo:lat":35.892089,"@context":"http://vocab.odpt.org/context_odpt.jsonld","dc:title":"東吾野","geo:long":139.260678,"owl:sameAs":"odpt.Station:Seibu.Ikebukuro.HigashiAgano","odpt:railway":"odpt.Railway:Seibu.Ikebukuro","odpt:operator":"odpt.Operator:Seibu","odpt:stationCode":"SI30"},{"@id":"urn:ucode:_00001C00000000000001000003102AE1","@type":"odpt:Station","dc:date":"2017-12-08T13:40:52+09:00","geo:lat":35.908488,"@context":"http://vocab.odpt.org/context_odpt.jsonld","dc:title":"吾野","geo:long":139.226693,"owl:sameAs":"odpt.Station:Seibu.Ikebukuro.Agano","odpt:railway":"odpt.Railway:Seibu.Ikebukuro","odpt:operator":"odpt.Operator:Seibu","odpt:stationCode":"SI31"}]