[{"@id":"urn:ucode:_00001C00000000000001000003102288","@type":"odpt:Station","dc:date":"2017-12-08T13:40:51+09:00","geo:lat":35.691326,"@context":"http://vocab.odpt.org/context_odpt.jsonld","dc:title":"新宿","geo:long":139.699517,"owl:sameAs":"odpt.Station:Odakyu.Odawara.Shinjuku","odpt:railway":"odpt.Railway:Odakyu.Odawara","odpt:operator":"odpt.Operator:Odakyu","odpt:stationCode":"OH01"},{"@id":"urn:ucode:_00001C00000000000001000003102294","@type":"odpt:Station","dc:date":"2017-12-08T13:40:51+09:00","geo:lat":35.683641,"@context":"http://vocab.odpt.org/context_odpt.jsonld","dc:title":"南新宿","geo:long":139.698714,"owl:sameAs":"odpt.Station:Odakyu.Odawara.MinamiShinjuku","odpt:railway":"odpt.Railway:Odakyu.Odawara","odpt:operator":"odpt.Operator:Odakyu","odpt:stationCode":"OH02"},{"@id":"urn:ucode:_00001C00000000000001000003102295","@type":"odpt:Station","dc:date":"2017-12-08T13:40:51+09:00","geo:lat":35.678709,"@context":"http://vocab.odpt.org/context_odpt.jsonld","dc:title":"参宮橋","geo:long":139.693549,"owl:sameAs":"odpt.Station:Odakyu.Odawara.Sangubashi","odpt:railway":"odpt.Railway:Odakyu.Odawara","odpt:operator":"odpt.Operator:Odakyu","odpt:stationCode":"OH03"},{"@id":"urn:ucode:_00001C00000000000001000003102296","@type":"odpt:Station","dc:date":"2017-12-08T13:40:51+09:00","geo:lat":35.682616,"@context":"http://vocab.odpt.org/context_odpt.jsonld","dc:title":"代々木八幡","geo:long":139.69885,"owl:sameAs":"odpt.Station:Odakyu.Odawara.YoyogiHachiman","odpt:railway":"odpt.Railway:Odakyu.Odawara","odpt:operator":"odpt.Operator:Odakyu","odpt:stationCode":"OH04"},{"@id":"urn:ucode:_00001C00000000000001000003102297","@type":"odpt:Station","dc:date":"2017-12-08T13:40:51+09:00","geo:lat":35.669498,"@context":"http://vocab.odpt.org/context_odpt.jsonld","dc:title":"代々木上原","geo:long":139.680388,"owl:sameAs":"odpt.Station:Odakyu.Odawara.YoyogiUehara","odpt:railway":"odpt.Railway:Odakyu.Odawara","odpt:operator":"odpt.Operator:Odakyu","odpt:stationCode":"OH05"},{"@id":"urn:ucode:_00001C00000000000001000003102298","@type":"odpt:Station","dc:date":"2017-12-08T13:40:51+09:00","geo:lat":35.665507,"@context":"http://vocab.odpt.org/context_odpt.jsonld","dc:title":"東北沢","geo:long":139.673076,"owl:sameAs":"odpt.Station:Odakyu.Odawara.HigashiKitazawa","odpt:railway":"odpt.Railway:Odakyu.Odawara","odpt:operator":"odpt.Operator:Odakyu","odpt:stationCode":"OH06"},{"@id":"urn:ucode:_00001C00000000000001000003102299","@type":"odpt:Station","dc:date":"2017-12-08T13:40:51+09:00","geo:lat":35.661329,"@context":"http://vocab.odpt.org/context_odpt.jsonld","dc:title":"下北沢","geo:long":139.667448,"owl:sameAs":"odpt.Station:Odakyu.Odawara.ShimoKitazawa","odpt:railway":"odpt.Railway:Odakyu.Odawara","odpt:operator":"odpt.Operator:Odakyu","odpt:stationCode":"OH07"},{"@id":"urn:ucode:_00001C0000000000000100000310229B","@type":"odpt:Station","dc:date":"2017-12-08T13:40:51+09:00","geo:lat":35.65816,"@context":"http://vocab.odpt.org/context_odpt.jsonld","dc:title":"世田谷代田","geo:long":139.661197,"owl:sameAs":"odpt.Station:Odakyu.Odawara.SetagayaDaita","odpt:railway":"odpt.Railway:Odakyu.Odawara","odpt:operator":"odpt.Operator:Odakyu","odpt:stationCode":"OH08"},{"@id":"urn:ucode:_00001C0000000000000100000310229C","@type":"odpt:Station","dc:date":"2017-12-08T13:40:51+09:00","geo:lat":35.656102,"@context":"http://vocab.odpt.org/context_odpt.jsonld","dc:title":"梅ヶ丘","geo:long":139.654214,"owl:sameAs":"odpt.Station:Odakyu.Odawara.Umegaoka","odpt:railway":"odpt.Railway:Odakyu.Odawara","odpt:operator":"odpt.Operator:Odakyu","odpt:stationCode":"OH09"},{"@id":"urn:ucode:_00001C0000000000000100000310229F","@type":"odpt:Station","dc:date":"2017-12-08T13:40:51+09:00","geo:lat":35.653691,"@context":"http://vocab.odpt.org/context_odpt.jsonld","dc:title":"豪徳寺","geo:long":139.647539,"owl:sameAs":"odpt.Station:Odakyu.Odawara.Gotokuji","odpt:railway":"odpt.Railway:Odakyu.Odawara","odpt:operator":"odpt.Operator:Odakyu","odpt:stationCode":"OH10"},{"@id":"urn:ucode:_00001C000000000000010000031022A0","@type":"odpt:Station","dc:date":"2017-12-08T13:40:51+09:00","geo:lat":35.65151,"@context":"http://vocab.odpt.org/context_odpt.jsonld","dc:title":"経堂","geo:long":139.636774,"owl:sameAs":"odpt.Station:Odakyu.Odawara.Kyodo","odpt:railway":"odpt.Railway:Odakyu.Odawara","odpt:operator":"odpt.Operator:Odakyu","odpt:stationCode":"OH11"},{"@id":"urn:ucode:_00001C000000000000010000031022A1","@type":"odpt:Station","dc:date":"2017-12-08T13:40:51+09:00","geo:lat":35.647386,"@context":"http://vocab.odpt.org/context_odpt.jsonld","dc:title":"千歳船橋","geo:long":139.62415,"owl:sameAs":"odpt.Station:Odakyu.Odawara.ChitoseFunabashi","odpt:railway":"odpt.Railway:Odakyu.Odawara","odpt:operator":"odpt.Operator:Odakyu","odpt:stationCode":"OH12"},{"@id":"urn:ucode:_00001C000000000000010000031022A2","@type":"odpt:Station","dc:date":"2017-12-08T13:40:51+09:00","geo:lat":35.643316,"@context":"http://vocab.odpt.org/context_odpt.jsonld","dc:title":"祖師ヶ谷大蔵","geo:long":139.609578,"owl:sameAs":"odpt.Station:Odakyu.Odawara.SoshigayaOkura","odpt:railway":"odpt.Railway:Odakyu.Odawara","odpt:operator":"odpt.Operator:Odakyu","odpt:stationCode":"OH13"},{"@id":"urn:ucode:_00001C000000000000010000031022A3","@type":"odpt:Station","dc:date":"2017-12-08T13:40:51+09:00","geo:lat":35.640061,"@context":"http://vocab.odpt.org/context_odpt.jsonld","dc:title":"成城学園前","geo:long":139.598744,"owl:sameAs":"odpt.Station:Odakyu.Odawara.SeijogakuenMae","odpt:railway":"odpt.Railway:Odakyu.Odawara","odpt:operator":"odpt.Operator:Odakyu","odpt:stationCode":"OH14"},{"@id":"urn:ucode:_00001C000000000000010000031022E7","@type":"odpt:Station","dc:date":"2017-12-08T13:40:51+09:00","geo:lat":35.636659,"@context":"http://vocab.odpt.org/context_odpt.jsonld","dc:title":"喜多見","geo:long":139.587021,"owl:sameAs":"odpt.Station:Odakyu.Odawara.Kitami","odpt:railway":"odpt.Railway:Odakyu.Odawara","odpt:operator":"odpt.Operator:Odakyu","odpt:stationCode":"OH15"},{"@id":"urn:ucode:_00001C000000000000010000031022E8","@type":"odpt:Station","dc:date":"2017-12-08T13:40:51+09:00","geo:lat":35.632176,"@context":"http://vocab.odpt.org/context_odpt.jsonld","dc:title":"狛江","geo:long":139.577406,"owl:sameAs":"odpt.Station:Odakyu.Odawara.Komae","odpt:railway":"odpt.Railway:Odakyu.Odawara","odpt:operator":"odpt.Operator:Odakyu","odpt:stationCode":"OH16"},{"@id":"urn:ucode:_00001C000000000000010000031022EC","@type":"odpt:Station","dc:date":"2017-12-08T13:40:51+09:00","geo:lat":35.627146,"@context":"http://vocab.odpt.org/context_odpt.jsonld","dc:title":"和泉多摩川","geo:long":139.573331,"owl:sameAs":"odpt.Station:Odakyu.Odawara.IzumiTamagawa","odpt:railway":"odpt.Railway:Odakyu.Odawara","odpt:operator":"odpt.Operator:Odakyu","odpt:stationCode":"OH17"},{"@id":"urn:ucode:_00001C000000000000010000031022F1","@type":"odpt:Station","dc:date":"2017-12-08T13:40:51+09:00","geo:lat":35.62103,"@context":"http://vocab.odpt.org/context_odpt.jsonld","dc:title":"登戸","geo:long":139.569437,"owl:sameAs":"odpt.Station:Odakyu.Odawara.Noborito","odpt:railway":"odpt.Railway:Odakyu.Odawara","odpt:operator":"odpt.Operator:Odakyu","odpt:stationCode":"OH18"},{"@id":"urn:ucode:_00001C000000000000010000031022F2","@type":"odpt:Station","dc:date":"2017-12-08T13:40:51+09:00","geo:lat":35.617546,"@context":"http://vocab.odpt.org/context_odpt.jsonld","dc:title":"向ヶ丘遊園","geo:long":139.564827,"owl:sameAs":"odpt.Station:Odakyu.Odawara.MukogaokaYuen","odpt:railway":"odpt.Railway:Odakyu.Odawara","odpt:operator":"odpt.Operator:Odakyu","odpt:stationCode":"OH19"},{"@id":"urn:ucode:_00001C00000000000001000003102312","@type":"odpt:Station","dc:date":"2017-12-08T13:40:51+09:00","geo:lat":35.615048,"@context":"http://vocab.odpt.org/context_odpt.jsonld","dc:title":"生田","geo:long":139.542199,"owl:sameAs":"odpt.Station:Odakyu.Odawara.Ikuta","odpt:railway":"odpt.Railway:Odakyu.Odawara","odpt:operator":"odpt.Operator:Odakyu","odpt:stationCode":"OH20"},{"@id":"urn:ucode:_00001C00000000000001000003102314","@type":"odpt:Station","dc:date":"2017-12-08T13:40:51+09:00","geo:lat":35.614651,"@context":"http://vocab.odpt.org/context_odpt.jsonld","dc:title":"読売ランド前","geo:long":139.528247,"owl:sameAs":"odpt.Station:Odakyu.Odawara.YomiuriLandMae","odpt:railway":"odpt.Railway:Odakyu.Odawara","odpt:operator":"odpt.Operator:Odakyu","odpt:stationCode":"OH21"},{"@id":"urn:ucode:_00001C00000000000001000003102322","@type":"odpt:Station","dc:date":"2017-12-08T13:40:51+09:00","geo:lat":35.609102,"@context":"http://vocab.odpt.org/context_odpt.jsonld","dc:title":"百合ヶ丘","geo:long":139.51623,"owl:sameAs":"odpt.Station:Odakyu.Odawara.Yurigaoka","odpt:railway":"odpt.Railway:Odakyu.Odawara","odpt:operator":"odpt.Operator:Odakyu","odpt:stationCode":"OH22"},{"@id":"urn:ucode:_00001C00000000000001000003102323","@type":"odpt:Station","dc:date":"2017-12-08T13:40:51+09:00","geo:lat":35.603952,"@context":"http://vocab.odpt.org/context_odpt.jsonld","dc:title":"新百合ヶ丘","geo:long":139.507505,"owl:sameAs":"odpt.Station:Odakyu.Odawara.ShinYurigaoka","odpt:railway":"odpt.Railway:Odakyu.Odawara","odpt:operator":"odpt.Operator:Odakyu","odpt:stationCode":"OH23"},{"@id":"urn:ucode:_00001C00000000000001000003102324","@type":"odpt:Station","dc:date":"2017-12-08T13:40:51+09:00","geo:lat":35.589827,"@context":"http://vocab.odpt.org/context_odpt.jsonld","dc:title":"柿生","geo:long":139.497939,"owl:sameAs":"odpt.Station:Odakyu.Odawara.Kakio","odpt:railway":"odpt.Railway:Odakyu.Odawara","odpt:operator":"odpt.Operator:Odakyu","odpt:stationCode":"OH24"},{"@id":"urn:ucode:_00001C00000000000001000003102325","@type":"odpt:Station","dc:date":"2017-12-08T13:40:51+09:00","geo:lat":35.58315,"@context":"http://vocab.odpt.org/context_odpt.jsonld","dc:title":"鶴川","geo:long":139.48099,"owl:sameAs":"odpt.Station:Odakyu.Odawara.Tsurukawa","odpt:railway":"odpt.Railway:Odakyu.Odawara","odpt:operator":"odpt.Operator:Odakyu","odpt:stationCode":"OH25"},{"@id":"urn:ucode:_00001C00000000000001000003102327","@type":"odpt:Station","dc:date":"2017-12-08T13:40:51+09:00","geo:lat":35.563658,"@context":"http://vocab.odpt.org/context_odpt.jsonld","dc:title":"玉川学園前","geo:long":139.463674,"owl:sameAs":"odpt.Station:Odakyu.Odawara.TamagawagakuenMae","odpt:railway":"odpt.Railway:Odakyu.Odawara","odpt:operator":"odpt.Operator:Odakyu","odpt:stationCode":"OH26"},{"@id":"urn:ucode:_00001C00000000000001000003102328","@type":"odpt:Station","dc:date":"2017-12-08T13:40:51+09:00","geo:lat":35.544432,"@context":"http://vocab.odpt.org/context_odpt.jsonld","dc:title":"町田","geo:long":139.445826,"owl:sameAs":"odpt.Station:Odakyu.Odawara.Machida","odpt:railway":"odpt.Railway:Odakyu.Odawara","odpt:operator":"odpt.Operator:Odakyu","odpt:stationCode":"OH27"},{"@id":"urn:ucode:_00001C00000000000001000003102351","@type":"odpt:Station","dc:date":"2017-12-08T13:40:51+09:00","geo:lat":35.531331,"@context":"http://vocab.odpt.org/context_odpt.jsonld","dc:title":"相模大野","geo:long":139.436928,"owl:sameAs":"odpt.Station:Odakyu.Odawara.SagamiOno","odpt:railway":"odpt.Railway:Odakyu.Odawara","odpt:operator":"odpt.Operator:Odakyu","odpt:stationCode":"OH28"},{"@id":"urn:ucode:_00001C00000000000001000003102353","@type":"odpt:Station","dc:date":"2017-12-08T13:40:51+09:00","geo:lat":35.515134,"@context":"http://vocab.odpt.org/context_odpt.jsonld","dc:title":"小田急相模原","geo:long":139.422574,"owl:sameAs":"odpt.Station:Odakyu.Odawara.OdakyuSagamihara","odpt:railway":"odpt.Railway:Odakyu.Odawara","odpt:operator":"odpt.Operator:Odakyu","odpt:stationCode":"OH29"},{"@id":"urn:ucode:_00001C00000000000001000003102361","@type":"odpt:Station","dc:date":"2017-12-08T13:40:51+09:00","geo:lat":35.499128,"@context":"http://vocab.odpt.org/context_odpt.jsonld","dc:title":"相武台前","geo:long":139.408415,"owl:sameAs":"odpt.Station:Odakyu.Odawara.SobudaiMae","odpt:railway":"odpt.Railway:Odakyu.Odawara","odpt:operator":"odpt.Operator:Odakyu","odpt:stationCode":"OH30"},{"@id":"urn:ucode:_00001C00000000000001000003102363","@type":"odpt:Station","dc:date":"2017-12-08T13:40:51+09:00","geo:lat":35.479533,"@context":"http://vocab.odpt.org/context_odpt.jsonld","dc:title":"座間","geo:long":139.401252,"owl:sameAs":"odpt.Station:Odakyu.Odawara.Zama","odpt:railway":"odpt.Railway:Odakyu.Odawara","odpt:operator":"odpt.Operator:Odakyu","odpt:stationCode":"OH31"},{"@id":"urn:ucode:_00001C000000000000010000031023C1","@type":"odpt:Station","dc:date":"2017-12-08T13:40:51+09:00","geo:lat":35.452654,"@context":"http://vocab.odpt.org/context_odpt.jsonld","dc:title":"海老名","geo:long":139.390834,"owl:sameAs":"odpt.Station:Odakyu.Odawara.Ebina","odpt:railway":"odpt.Railway:Odakyu.Odawara","odpt:operator":"odpt.Operator:Odakyu","odpt:stationCode":"OH32"},{"@id":"urn:ucode:_00001C000000000000010000031023C2","@type":"odpt:Station","dc:date":"2017-12-08T13:40:51+09:00","geo:lat":35.443343,"@context":"http://vocab.odpt.org/context_odpt.jsonld","dc:title":"厚木","geo:long":139.378454,"owl:sameAs":"odpt.Station:Odakyu.Odawara.Atsugi","odpt:railway":"odpt.Railway:Odakyu.Odawara","odpt:operator":"odpt.Operator:Odakyu","odpt:stationCode":"OH33"},{"@id":"urn:ucode:_00001C00000000000001000003102411","@type":"odpt:Station","dc:date":"2017-12-08T13:40:51+09:00","geo:lat":35.439365,"@context":"http://vocab.odpt.org/context_odpt.jsonld","dc:title":"本厚木","geo:long":139.364302,"owl:sameAs":"odpt.Station:Odakyu.Odawara.HonAtsugi","odpt:railway":"odpt.Railway:Odakyu.Odawara","odpt:operator":"odpt.Operator:Odakyu","odpt:stationCode":"OH34"},{"@id":"urn:ucode:_00001C00000000000001000003102413","@type":"odpt:Station","dc:date":"2017-12-08T13:40:51+09:00","geo:lat":35.417632,"@context":"http://vocab.odpt.org/context_odpt.jsonld","dc:title":"愛甲石田","geo:long":139.343884,"owl:sameAs":"odpt.Station:Odakyu.Odawara.AikoIshida","odpt:railway":"odpt.Railway:Odakyu.Odawara","odpt:operator":"odpt.Operator:Odakyu","odpt:stationCode":"OH35"},{"@id":"urn:ucode:_00001C00000000000001000003102431","@type":"odpt:Station","dc:date":"2017-12-08T13:40:51+09:00","geo:lat":35.396014,"@context":"http://vocab.odpt.org/context_odpt.jsonld","dc:title":"伊勢原","geo:long":139.313507,"owl:sameAs":"odpt.Station:Odakyu.Odawara.Isehara","odpt:railway":"odpt.Railway:Odakyu.Odawara","odpt:operator":"odpt.Operator:Odakyu","odpt:stationCode":"OH36"},{"@id":"urn:ucode:_00001C00000000000001000003102433","@type":"odpt:Station","dc:date":"2017-12-08T13:40:51+09:00","geo:lat":35.380989,"@context":"http://vocab.odpt.org/context_odpt.jsonld","dc:title":"鶴巻温泉","geo:long":139.277685,"owl:sameAs":"odpt.Station:Odakyu.Odawara.TsurumakiOnsen","odpt:railway":"odpt.Railway:Odakyu.Odawara","odpt:operator":"odpt.Operator:Odakyu","odpt:stationCode":"OH37"},{"@id":"urn:ucode:_00001C00000000000001000003102612","@type":"odpt:Station","dc:date":"2017-12-08T13:40:51+09:00","geo:lat":35.373182,"@context":"http://vocab.odpt.org/context_odpt.jsonld","dc:title":"東海大学前","geo:long":139.271283,"owl:sameAs":"odpt.Station:Odakyu.Odawara.TokaidaigakuMae","odpt:railway":"odpt.Railway:Odakyu.Odawara","odpt:operator":"odpt.Operator:Odakyu","odpt:stationCode":"OH38"},{"@id":"urn:ucode:_00001C00000000000001000003102614","@type":"odpt:Station","dc:date":"2017-12-08T13:40:51+09:00","geo:lat":35.370223,"@context":"http://vocab.odpt.org/context_odpt.jsonld","dc:title":"秦野","geo:long":139.225965,"owl:sameAs":"odpt.Station:Odakyu.Odawara.Hadano","odpt:railway":"odpt.Railway:Odakyu.Odawara","odpt:operator":"odpt.Operator:Odakyu","odpt:stationCode":"OH39"},{"@id":"urn:ucode:_00001C00000000000001000003102622","@type":"odpt:Station","dc:date":"2017-12-08T13:40:51+09:00","geo:lat":35.374179,"@context":"http://vocab.odpt.org/context_odpt.jsonld","dc:title":"渋沢","geo:long":139.18456,"owl:sameAs":"odpt.Station:Odakyu.Odawara.Shibusawa","odpt:railway":"odpt.Railway:Odakyu.Odawara","odpt:operator":"odpt.Operator:Odakyu","odpt:stationCode":"OH40"},{"@id":"urn:ucode:_00001C00000000000001000003102623","@type":"odpt:Station","dc:date":"2017-12-08T13:40:51+09:00","geo:lat":35.345071,"@context":"http://vocab.odpt.org/context_odpt.jsonld","dc:title":"新松田","geo:long":139.139825,"owl:sameAs":"odpt.Station:Odakyu.Odawara.ShinMatsuda","odpt:railway":"odpt.Railway:Odakyu.Odawara","odpt:operator":"odpt.Operator:Odakyu","odpt:stationCode":"OH41"},{"@id":"urn:ucode:_00001C00000000000001000003102624","@type":"odpt:Station","dc:date":"2017-12-08T13:40:51+09:00","geo:lat":35.326343,"@context":"http://vocab.odpt.org/context_odpt.jsonld","dc:title":"開成","geo:long":139.135874,"owl:sameAs":"odpt.Station:Odakyu.Odawara.Kaisei","odpt:railway":"odpt.Railway:Odakyu.Odawara","odpt:operator":"odpt.Operator:Odakyu","odpt:stationCode":"OH42"},{"@id":"urn:ucode:_00001C00000000000001000003102628","@type":"odpt:Station","dc:date":"2017-12-08T13:40:51+09:00","geo:lat":35.310407,"@context":"http://vocab.odpt.org/context_odpt.jsonld","dc:title":"栢山","geo:long":139.1427,"owl:sameAs":"odpt.Station:Odakyu.Odawara.Kayama","odpt:railway":"odpt.Railway:Odakyu.Odawara","odpt:operator":"odpt.Operator:Odakyu","odpt:stationCode":"OH43"},{"@id":"urn:ucode:_00001C00000000000001000003102651","@type":"odpt:Station","dc:date":"2017-12-08T13:40:51+09:00","geo:lat":35.296228,"@context":"http://vocab.odpt.org/context_odpt.jsonld","dc:title":"富水","geo:long":139.145503,"owl:sameAs":"odpt.Station:Odakyu.Odawara.Tomizu","odpt:railway":"odpt.Railway:Odakyu.Odawara","odpt:operator":"odpt.Operator:Odakyu","odpt:stationCode":"OH44"},{"@id":"urn:ucode:_00001C00000000000001000003102653","@type":"odpt:Station","dc:date":"2017-12-08T13:40:51+09:00","geo:lat":35.284666,"@context":"http://vocab.odpt.org/context_odpt.jsonld","dc:title":"螢田","geo:long":139.152242,"owl:sameAs":"odpt.Station:Odakyu.Odawara.Hotaruda","odpt:railway":"odpt.Railway:Odakyu.Odawara","odpt:operator":"odpt.Operator:Odakyu","odpt:stationCode":"OH45"},{"@id":"urn:ucode:_00001C000000000000010000031026FD","@type":"odpt:Station","dc:date":"2017-12-08T13:40:51+09:00","geo:lat":35.272238,"@context":"http://vocab.odpt.org/context_odpt.jsonld","dc:title":"足柄","geo:long":139.154505,"owl:sameAs":"odpt.Station:Odakyu.Odawara.Ashigara","odpt:railway":"odpt.Railway:Odakyu.Odawara","odpt:operator":"odpt.Operator:Odakyu","odpt:stationCode":"OH46"},{"@id":"urn:ucode:_00001C000000000000010000031026FE","@type":"odpt:Station","dc:date":"2017-12-08T13:40:51+09:00","geo:lat":35.256446,"@context":"http://vocab.odpt.org/context_odpt.jsonld","dc:title":"小田原","geo:long":139.154638,"owl:sameAs":"odpt.Station:Odakyu.Odawara.Odawara","odpt:railway":"odpt.Railway:Odakyu.Odawara","odpt:operator":"odpt.Operator:Odakyu","odpt:stationCode":"OH47"}]