[{"@id":"urn:ucode:_00001C00000000000001000003102B2C","@type":"odpt:Station","dc:date":"2017-12-08T13:40:53+09:00","geo:lat":35.645826,"@context":"http://vocab.odpt.org/context_odpt.jsonld","dc:title":"新木場","geo:long":139.826438,"owl:sameAs":"odpt.Station:TWR.Rinkai.ShinKiba","odpt:railway":"odpt.Railway:TWR.Rinkai","odpt:operator":"odpt.Operator:TWR","odpt:stationCode":"R1"},{"@id":"urn:ucode:_00001C00000000000001000003102B2D","@type":"odpt:Station","dc:date":"2017-12-08T13:40:53+09:00","geo:lat":35.640647,"@context":"http://vocab.odpt.org/context_odpt.jsonld","dc:title":"東雲","geo:long":139.803382,"owl:sameAs":"odpt.Station:TWR.Rinkai.Shinonome","odpt:railway":"odpt.Railway:TWR.Rinkai","odpt:operator":"odpt.Operator:TWR","odpt:stationCode":"R2"},{"@id":"urn:ucode:_00001C00000000000001000003102B2E","@type":"odpt:Station","dc:date":"2017-12-08T13:40:53+09:00","geo:lat":35.634393,"@context":"http://vocab.odpt.org/context_odpt.jsonld","dc:title":"国際展示場","geo:long":139.791484,"owl:sameAs":"odpt.Station:TWR.Rinkai.KokusaiTenjijyo","odpt:railway":"odpt.Railway:TWR.Rinkai","odpt:operator":"odpt.Operator:TWR","odpt:stationCode":"R3"},{"@id":"urn:ucode:_00001C00000000000001000003102B2F","@type":"odpt:Station","dc:date":"2017-12-08T13:40:53+09:00","geo:lat":35.627498,"@context":"http://vocab.odpt.org/context_odpt.jsonld","dc:title":"東京テレポート","geo:long":139.779059,"owl:sameAs":"odpt.Station:TWR.Rinkai.TokyoTeleport","odpt:railway":"odpt.Railway:TWR.Rinkai","odpt:operator":"odpt.Operator:TWR","odpt:stationCode":"R4"},{"@id":"urn:ucode:_00001C00000000000001000003102B30","@type":"odpt:Station","dc:date":"2017-12-08T13:40:53+09:00","geo:lat":35.620466,"@context":"http://vocab.odpt.org/context_odpt.jsonld","dc:title":"天王洲アイル","geo:long":139.750838,"owl:sameAs":"odpt.Station:TWR.Rinkai.TennozuIsle","odpt:railway":"odpt.Railway:TWR.Rinkai","odpt:operator":"odpt.Operator:TWR","odpt:stationCode":"R5"},{"@id":"urn:ucode:_00001C00000000000001000003102B31","@type":"odpt:Station","dc:date":"2017-12-08T13:40:53+09:00","geo:lat":35.609783,"@context":"http://vocab.odpt.org/context_odpt.jsonld","dc:title":"品川シーサイド","geo:long":139.749739,"owl:sameAs":"odpt.Station:TWR.Rinkai.ShinagawaSeaside","odpt:railway":"odpt.Railway:TWR.Rinkai","odpt:operator":"odpt.Operator:TWR","odpt:stationCode":"R6"},{"@id":"urn:ucode:_00001C00000000000001000003102B32","@type":"odpt:Station","dc:date":"2017-12-08T13:40:53+09:00","geo:lat":35.607446,"@context":"http://vocab.odpt.org/context_odpt.jsonld","dc:title":"大井町","geo:long":139.734419,"owl:sameAs":"odpt.Station:TWR.Rinkai.Oimachi","odpt:railway":"odpt.Railway:TWR.Rinkai","odpt:operator":"odpt.Operator:TWR","odpt:stationCode":"R7"},{"@id":"urn:ucode:_00001C00000000000001000003102B33","@type":"odpt:Station","dc:date":"2017-12-08T13:40:53+09:00","geo:lat":35.619288,"@context":"http://vocab.odpt.org/context_odpt.jsonld","dc:title":"大崎","geo:long":139.728277,"owl:sameAs":"odpt.Station:TWR.Rinkai.Osaki","odpt:railway":"odpt.Railway:TWR.Rinkai","odpt:operator":"odpt.Operator:TWR","odpt:stationCode":"R8"}]